Page,Item,zid,State,City,Address,Lat,Lng,Price,Image,Bedrooms,Bathrooms,lotArea,constructedArea,zipCode,CountyId,taxRate,hasGarage,hasPool,hasCooling,hasView,yearBuilt,stories,parkingSpaces,annualHOI,annualHOA,Zone,schoolElemRating,schoolElemDist,schoolMidRating,schoolMidDist,schoolHighRating,schoolHighDist,priceIncreased,priceDiff,days
12,1,28475388,TX,Houston,"3334 Tenaha Dr, Houston, TX 77014",29.984583,-95.46227,59000,https://photos.zillowstatic.com/fp/d790ee50986b782ebd7bd5680a816002-p_e.jpg,3,2,4408.272,1667,77014,1090,2.29,1,0,1,0,1999,1,2,1008,$400 annually,,4,1,3,2.4,1,3.3,1,181000,3768
12,2,305340708,TX,Houston,"9826 Yanet Grove Ln, Houston, TX 77044",29.863142,-95.19486,1800,https://photos.zillowstatic.com/fp/55add96e88f260740743571a379ca6f2-p_e.jpg,3,2,4800.312,1620,77044,1090,2.29,1,0,1,0,2018,1,2,1008,$425 annually,,3,0.8,3,1.9,4,1.2,0,0,0
12,3,62564554,TX,Houston,"5726 Tidewater Dr, Houston, TX 77085",29.634083,-95.46911,265000,https://photos.zillowstatic.com/fp/3fd814a0ab5b411248bfd685be904b8b-p_e.jpg,3,3,4499.748,1590,77085,1090,2.29,1,0,1,0,2002,2,2,1008,$275 annually,,5,0.5,4,1.3,2,2.0,0,-25000,68
12,4,80530600,TX,Houston,"1118 Vernage Rd, Houston, TX 77047",29.617088,-95.40566,,https://photos.zillowstatic.com/fp/0260e14c1ad8a5f4944555e7fc6695b4-p_e.jpg,4,3,5309.964,1833,77047,1090,2.29,1,0,1,0,2006,2,2,1008,$436 annually,,4,1.3,4,3.0,3,3.5,0,0,3954
12,5,80575876,TX,Houston,"19507 Fletcher Way Dr, Houston, TX 77073",29.976755,-95.40978,105000,https://photos.zillowstatic.com/fp/8d3f2863fb0eda59ce0ebd7bb227bb18-p_e.jpg,4,3,3563.208,1716,77073,1090,2.29,1,0,1,0,2005,2,1,1008,$570 annually,,5,0.7,2,5.6,1,2.7,1,135000,5707
12,6,80582493,TX,Houston,"1430 Loxley Dr, Houston, TX 77014",29.985144,-95.44432,115000,https://photos.zillowstatic.com/fp/5f37d555b5bc7481c75929a77d98153a-p_e.jpg,3,3,4957.128,2155,77014,1090,2.29,1,0,1,0,2006,2,2,1008,$400 annually,,999,999,999,999.0,999,999.0,1,125000,3337
12,7,89649978,TX,Houston,"19410 Kingston Green Ln, Houston, TX 77073",29.975323,-95.40108,86000,https://photos.zillowstatic.com/fp/8249477f7150d3dcbafc63fa7688d1a3-p_e.jpg,4,3,4399.56,1857,77073,1090,2.29,1,0,1,0,2008,2,2,1008,$410 annually,,999,999,999,999.0,999,999.0,1,154000,3681
12,8,97629734,TX,Houston,"5009 Richfield Ln, Houston, TX 77048",29.645159,-95.35069,155000,https://photos.zillowstatic.com/fp/335d8c90c7a1870aa015f6ed79b5d57a-p_e.jpg,3,2,6050.484,1433,77048,1090,2.29,1,0,1,0,2018,1,2,1008,,,4,1,2,1.2,3,1.8,1,85000,4170
12,9,2060357156,TX,Houston,"7831 French Marigold Ln, Houston, TX 77016",,,240990,https://photos.zillowstatic.com/fp/8da08662bbadabb812e7336b9216361b-p_e.jpg,3,3,,1605,77016,1090,2.29,1,0,1,0,2022,2,2,1012,$450 annually,,3,1.7,4,0.7,2,1.5,0,0,0
12,10,2060886440,TX,Houston,"Atlantis Plan, Wayside Village",29.86093,-95.28343,229990,https://photos.zillowstatic.com/fp/36c60df5dd8f1ed50443c359eacbb22d-p_e.jpg,3,2,,1200,77016,1090,2.29,0,0,1,0,2022,,2,1012,,,3,1.9,4,0.9,2,1.3,1,11000,62
12,11,27977702,TX,Houston,"5635 Teague Rd, Houston, TX 77041",29.849508,-95.540634,174900,https://photos.zillowstatic.com/fp/a69aa823e926b492136d15967140319b-p_e.jpg,3,2,5501.628,1152,77041,1090,2.29,0,0,1,0,2001,2,0,1012,,,5,3.4,5,5.8,5,4.8,1,66100,694
12,12,28319872,TX,Houston,"15210 Stradbrook Dr, Houston, TX 77062",29.56841,-95.14416,1500,https://photos.zillowstatic.com/fp/36013582a7d148f8e18bbf6e74e9e098-p_e.jpg,3,3,7244.028,1723,77062,1090,2.29,1,0,1,0,1980,2,0,1012,$79 annually,,5,1.4,5,0.7,6,2.5,0,-23000,81
12,13,58673366,TX,Houston,"9831 Farrell Dr, Houston, TX 77070",29.951124,-95.56684,253000,https://photos.zillowstatic.com/fp/271f057af32f8e2f0715d291baf4799a-p_e.jpg,3,3,5340.456,1820,77070,1090,2.29,1,0,1,0,2001,2,2,1012,$725 annually,,4,0.6,6,1.1,5,0.9,0,-12000,93
12,14,126250858,TX,Houston,"19338 Wild Currant Ct, Houston, TX 77073",29.976248,-95.402115,263000,https://photos.zillowstatic.com/fp/78553387a1dfada981df64a55bbc9b62-p_e.jpg,3,3,2844.468,1899,77073,1090,2.29,1,0,1,0,2014,2,2,1016,$830 annually,,999,999,999,999.0,999,999.0,0,-21000,79
12,15,28282247,TX,Houston,"13715 Fieldstone Dr, Houston, TX 77041",29.883383,-95.61731,199000,https://photos.zillowstatic.com/fp/473bf60a8dfe2ef1dd52ac39442737fe-p_e.jpg,3,2,6899.904,1504,77041,1090,2.29,1,0,1,0,1978,1,2,1016,$385 annually,,7,0.6,7,1.8,5,2.4,1,43000,159
12,16,62583277,TX,Houston,"10002 Farrell Dr, Houston, TX 77070",29.951708,-95.569496,99990,https://photos.zillowstatic.com/fp/08b717acbcbba730032bd2c7221fad51-p_e.jpg,3,3,3493.512,1820,77070,1090,2.29,1,0,1,0,2002,2,2,1017,$725 annually,,4,0.6,6,1.0,5,0.9,1,142110,3557
12,17,28088757,TX,Houston,"450 Fintona Way, Houston, TX 77015",29.789644,-95.17348,242500,https://photos.zillowstatic.com/fp/2a08f48c9d873b15c79105ddfdab045e-p_e.jpg,3,2,8960.292,1345,77015,1090,2.29,1,0,1,0,1964,1,2,1019,$250 annually,,999,999,999,999.0,999,999.0,0,0,0
12,18,28082337,TX,Houston,"13919 Bretagne Dr, Houston, TX 77015",29.791256,-95.17726,242900,https://photos.zillowstatic.com/fp/a0083a46c7e52f9b25a8244d05f4799e-p_e.jpg,3,2,0.2812,1424,77015,1090,2.29,1,0,1,0,1963,1,2,1020,$350 annually,,999,999,999,999.0,999,999.0,0,0,0
12,19,28475380,TX,Houston,"3370 Tenaha Dr, Houston, TX 77014",29.983019,-95.470055,165000,https://photos.zillowstatic.com/fp/c65fa4d8486591ebe0ff1c4eab67e9c2-p_e.jpg,4,3,3994.452,1898,77014,1090,2.29,1,0,1,0,1999,2,2,1021,$400 annually,,4,0.9,3,2.0,2,2.1,1,78000,1389
12,20,84024293,TX,Houston,"4250 Heritagestone Dr, Houston, TX 77066",29.969713,-95.49397,245000,https://photos.zillowstatic.com/fp/e58bdfe5a7cb6765cb283725e442ac90-p_e.jpg,4,3,4177.404,1720,77066,1090,2.29,1,0,1,0,2007,2,2,1021,$400 annually,,4,0.1,4,0.5,2,0.4,0,-2000,63
12,21,241630564,TX,Houston,"19011 Barnesdale Ct, Houston, TX 77073",29.974298,-95.405,179900,https://photos.zillowstatic.com/fp/46accca785abc7fb20f444b0387af9f5-p_e.jpg,3,3,3484.8,2036,77073,1090,2.29,1,0,1,0,2017,2,2,1025,$570 annually,,999,999,999,999.0,999,999.0,1,64100,891
12,22,28116122,TX,Houston,"12030 Sharpcrest St, Houston, TX 77072",29.692738,-95.59124,249000,https://photos.zillowstatic.com/fp/4bb5ca0046476796f672764d07a685d6-p_e.jpg,4,2,8250.264,2452,77072,1090,2.29,0,0,1,0,1967,1,0,1025,$48 annually,,5,1.5,4,1.6,3,1.3,0,-5000,62
12,23,80562176,TX,Houston,"11710 Wainscot Ct, Houston, TX 77038",29.904005,-95.4627,260000,https://photos.zillowstatic.com/fp/7d200cb4bc74754d35aa2728074200a5-p_e.jpg,3,2,5501.628,1845,77038,1090,2.29,1,0,1,0,2006,1,2,1025,$461 annually,,999,999,999,999.0,999,999.0,0,-16000,45
12,24,2061145283,TX,Houston,"22019 Sovereign Heights Ln, Houston, TX 77073",,,284015,https://photos.zillowstatic.com/fp/3038dd3d5b8107299972689bc760da42-p_e.jpg,3,3,3672,1643,77073,1090,2.29,1,0,1,0,2022,2,2,1025,$425 annually,,999,999,999,999.0,999,999.0,0,-40000,34
12,25,28317921,TX,Houston,"8715 Belle Glen Dr, Houston, TX 77099",29.681486,-95.5866,90000,https://photos.zillowstatic.com/fp/431f08709f4ead0e69db7d427ace8aca-p_e.jpg,3,2,4800.312,1312,77099,1090,2.29,1,0,1,0,1981,1,2,1026,$520 annually,,4,1.1,6,1.2,3,2.0,1,154250,4198
12,26,2060606518,TX,Houston,"10518 Orchid St, Houston, TX 77017",29.8647,-95.2829,244315,https://photos.zillowstatic.com/fp/79dda0399b6b74b25ff6cab68b5a04bd-p_e.jpg,3,2,5200,1403,77017,1090,2.29,1,0,1,0,2022,1,2,1026,$450 annually,,3,2,4,1.1,2,1.2,0,0,0
12,27,28172991,TX,Houston,"215 Blackwater Ln, Houston, TX 77015",29.798315,-95.16785,205000,https://photos.zillowstatic.com/fp/9c0fe7974a809d055eef5e5ce3dcedc6-p_e.jpg,4,2,7169.976,2088,77015,1090,2.29,1,0,1,0,1970,2,2,1029,$250 annually,,999,999,999,999.0,999,999.0,1,39900,189
12,28,28259858,TX,Houston,"11039 Holworth Dr, Houston, TX 77072",29.70658,-95.57412,275000,https://photos.zillowstatic.com/fp/1cfd9e0c289aa3e70c89b5d72fec5607-p_e.jpg,3,2,5187.996,1687,77072,1090,2.29,1,0,1,0,1978,1,2,1029,$285 annually,,5,0.3,4,1.3,3,1.8,0,-25100,11571
12,29,28266309,TX,Houston,"8742 Wildforest Dr, Houston, TX 77088",29.893353,-95.48459,244900,https://photos.zillowstatic.com/fp/aa6a5c38d45c24a61e0f047f573c3b2e-p_e.jpg,3,2,8759.916,1600,77088,1090,2.29,1,1,1,0,1978,1,2,1029,$300 annually,,4,1.3,4,1.1,2,4.6,0,0,0
12,30,305341281,TX,Houston,"9722 Vanessa Glen Ct, Houston, TX 77044",29.861376,-95.19916,250000,https://photos.zillowstatic.com/fp/a1aea9b90032c2a48b6453e9a34d2b1c-p_e.jpg,4,2,5486,1602,77044,1090,2.29,1,0,1,0,2018,1,2,1029,$370 annually,,3,0.7,3,1.8,4,1.0,0,-5100,31
12,31,80552186,TX,Houston,"11753 Logan Ridge Dr, Houston, TX 77072",29.711737,-95.58399,154000,https://photos.zillowstatic.com/fp/9234b3a1ac68adffb2b0f7d475dacf76-p_e.jpg,3,2,4321.152,1569,77072,1090,2.29,1,0,1,0,2005,1,2,1029,"$1,850 annually",,5,0.5,4,0.7,3,1.2,1,90900,2451
12,32,80582792,TX,Houston,"2647 Skyview Glen Ct, Houston, TX 77047",29.620691,-95.38254,1275,https://photos.zillowstatic.com/fp/3fa2da866e37e9a6e33ddf460410810f-p_e.jpg,3,3,4199.184,1955,77047,1090,2.29,1,0,1,0,2006,2,2,1029,$350 annually,,3,1.2,2,3.3,3,2.5,1,243625,3078
12,33,2060461459,TX,Houston,"22103 Imperious Park Way, Houston, TX 77073",30.01401,-95.41368,244955,https://photos.zillowstatic.com/fp/5913c0e3734926b63973d343424fc578-p_e.jpg,3,3,4530,1643,77073,1090,2.29,1,0,1,0,2022,2,2,1029,$425 annually,,999,999,999,999.0,999,999.0,0,0,0
12,34,2061677338,TX,Houston,"10026 Red Orchid Dr, Houston, TX 77017",29.864305,-95.28221,239990,https://photos.zillowstatic.com/fp/2936350b5596385632bd31cd110fbcc4-p_e.jpg,3,2,,1200,77017,1090,2.29,1,0,1,0,2022,1,2,1029,$450 annually,,3,2,4,1.1,2,1.2,1,5000,71
12,35,2062681403,TX,Houston,"Imperial Heights - Miguel Plan, Imperial Heights",30.013897,-95.41606,280990,https://photos.zillowstatic.com/fp/fdcc7c79a84e0d5ea5d028a37b69db72-p_e.jpg,3,3,,1830,77073,1090,2.29,0,0,0,0,2022,,2,1029,,,999,999,999,999.0,999,999.0,0,-36000,147
12,36,2064350350,TX,Houston,"9116 Peachtree St, Houston, TX 77016",,,249990,https://photos.zillowstatic.com/fp/87e92764385076933886b335e78e4d7a-p_e.jpg,3,2,4214,1175,77016,1090,2.29,0,0,1,0,2022,1,0,1029,,,3,1.3,3,2.2,3,1.4,0,-5000,268
12,37,2066461903,TX,Houston,"24721 Teton Hollow Trl, Huffman, TX 77336",,,245190,https://photos.zillowstatic.com/fp/cd29dc2945eb331c002e8f99d125a05b-p_e.jpg,3,2,,1267,77336,1090,2.29,1,0,1,1,2022,1,2,1029,$400 annually,,4,2.6,4,3.1,6,3.0,0,-200,279
12,38,28318045,TX,Houston,"11626 Bexley Dr, Houston, TX 77099",29.68249,-95.583824,249000,https://photos.zillowstatic.com/fp/885f0482b48f5fcd52335a2075806698-p_e.jpg,3,2,7230.96,1427,77099,1090,2.29,1,0,1,0,1980,1,2,1029,$520 annually,,4,1.2,6,1.3,3,2.1,0,-4010,70
12,39,28250850,TX,Houston,"10810 Coralstone Rd, Houston, TX 77086",29.934439,-95.486336,61000,https://photos.zillowstatic.com/fp/969b78a59da5175703e1385c0a619e28-p_e.jpg,3,2,8611.812,2176,77086,1090,2.29,1,0,1,0,1977,1,2,1029,$400 annually,,,0.9,3,3.4,3,3.6,1,183999,3906
12,40,121109105,TX,Houston,"1118 Watson Crossing Way, Houston, TX 77067",29.96166,-95.43718,1300,https://photos.zillowstatic.com/fp/2fc80b399dda9c9568dcf5a795f805e2-p_e.jpg,4,3,4321.152,2024,77067,1090,2.29,1,0,1,0,2012,2,2,1029,$450 annually,,999,999,999,999.0,999,999.0,0,0,0
