Page,Item,zid,State,City,Address,Lat,Lng,Price,Image,Bedrooms,Bathrooms,lotArea,constructedArea,zipCode,CountyId,taxRate,hasGarage,hasPool,hasCooling,hasView,yearBuilt,stories,parkingSpaces,annualHOI,annualHOA,Zone,schoolElemRating,schoolElemDist,schoolMidRating,schoolMidDist,schoolHighRating,schoolHighDist,priceIncreased,priceDiff,days
14,1,28487453,TX,Houston,"14507 Meeting Ln, Houston, TX 77084",29.859583,-95.62744,280000,https://photos.zillowstatic.com/fp/13d0d1074f62a2a336528e30384f729e-p_e.jpg,3,2,5458.068,1741,77084,1090,2.29,1,0,1,0,1989,1,2,1176,$350 annually,,5,0.6,5,0.7,5,3.7,0,0,0
14,2,28490428,TX,Houston,"16022 Sweetwater Creek Dr, Houston, TX 77095",29.898975,-95.651764,280000,https://photos.zillowstatic.com/fp/3d87d154a318c29423e21b4be6d213d5-p_e.jpg,4,3,7379.064,2348,77095,1090,2.29,1,0,1,0,1986,2,2,1176,$675 annually,,5,0.5,8,1.0,6,1.9,0,0,0
14,3,28493694,TX,Houston,"7827 Hidden Oaks Ln, Houston, TX 77095",29.893387,-95.65914,280000,https://photos.zillowstatic.com/fp/ebaa2049c62b3b20c67a77e017703c91-p_e.jpg,3,2,6324.912,1788,77095,1090,2.29,1,0,1,0,1988,1,2,1176,$675 annually,,5,0.6,8,0.8,6,1.3,0,0,9
14,4,28533246,TX,Houston,"16602 N Glade Dr, Houston, TX 77073",30.009502,-95.41496,56000,https://photos.zillowstatic.com/fp/ea2ee5e4de51e642de74d23a936ec7bf-p_e.jpg,3,2,7657.848,1784,77073,1090,2.29,1,0,1,0,1995,1,2,1176,$380 annually,,999,999.0,999,999.0,999,999.0,1,224000,3823
14,5,28546408,TX,Houston,"9014 Fawnshadow Ct, Houston, TX 77064",29.906565,-95.57992,195000,https://photos.zillowstatic.com/fp/04b0de839024c8d3e767473c672d3df3-p_e.jpg,3,3,6856.344,1878,77064,1090,2.29,1,0,1,0,1999,2,2,1176,$578 annually,,6,0.5,7,0.7,4,2.1,1,85000,2310
14,6,62592245,TX,Houston,"12214 Greenmesa Dr, Houston, TX 77044",29.89321,-95.21734,280000,https://photos.zillowstatic.com/fp/4638bfb4d22b5422a7740291cd787baf-p_e.jpg,3,3,5316.0,2414,77044,1090,2.29,1,0,1,0,2002,2,2,1176,,,2,0.6,3,0.6,4,2.9,0,0,5836
14,7,62594697,TX,Houston,"1242 Coppermeade Dr, Houston, TX 77067",29.952234,-95.4381,280000,https://photos.zillowstatic.com/fp/164bdc1550a46387b83508963a95047c-p_e.jpg,4,3,5248.98,2280,77067,1090,2.29,1,0,1,0,2002,2,2,1176,$450 annually,,3,0.3,3,0.2,3,0.3,0,0,6027
14,8,80596354,TX,Houston,"19530 Dawn Canyon Rd, Houston, TX 77084",29.809553,-95.71082,285000,https://photos.zillowstatic.com/fp/b987ceef3ff4f6c3a7b3735ad554ec0c-p_e.jpg,3,2,5039.892,1576,77084,1090,2.29,1,0,1,0,2005,1,2,1176,$530 annually,,6,1.3,8,0.6,6,0.9,0,-5000,204
14,9,84024486,TX,Houston,"6327 Wilshire Rdg, Houston, TX 77040",29.855637,-95.50212,2200,https://photos.zillowstatic.com/fp/f734ce950db2916492cf0bd9307c86db-p_e.jpg,3,6,3349.764,2003,77040,1090,2.29,1,0,1,0,2014,2,2,1176,$935 annually,,6,0.2,5,1.6,4,3.7,0,0,0
14,10,84055373,TX,Houston,"8938 Tarpon Springs Ln, Houston, TX 77095",29.90738,-95.63855,,https://photos.zillowstatic.com/fp/9103df3d86057580a2affc5b1d4d3e71-p_e.jpg,3,3,5153.148,2324,77095,1090,2.29,1,0,1,0,2002,2,2,1176,$720 annually,,6,0.5,7,0.7,5,0.8,0,0,6554
14,11,2060744964,TX,Houston,"7310 Concorde Fld, Houston, TX 77075",,,290970,https://photos.zillowstatic.com/fp/5a4c412bf518b33fd1b02d0bccfe5d4e-p_e.jpg,4,2,4400.0,1616,77075,1090,2.29,1,0,1,0,2022,2,2,1180,$375 annually,,6,0.9,6,2.6,3,4.1,0,-10000,40
14,12,2066401000,TX,Houston,"7323 Heath Knoll Ln, Houston, TX 77075",29.62188,-95.29824,278990,https://photos.zillowstatic.com/fp/ad05eb5b1a1c17d8c28d8daccec3c9fe-p_e.jpg,4,3,4600.0,1619,77075,1090,2.29,1,0,1,0,2022,2,2,1180,$375 annually,,9,1.2,2,2.4,3,1.8,1,1980,307
14,13,2062413125,TX,Houston,"24713 Teton Hollow Trl, Huffman, TX 77336",,,268990,https://photos.zillowstatic.com/fp/1c58f544454a19d76db892152b9f0d82-p_e.jpg,3,2,,1689,77336,1090,2.29,1,0,1,0,2022,1,0,1180,$400 annually,,4,2.6,4,3.1,6,3.0,1,12000,2
14,14,2061174150,TX,Houston,"10235 Mill Ct, Houston, TX 77070",29.954422,-95.57484,316490,https://photos.zillowstatic.com/fp/f8f3fbb3953376bfc1bfc17573565186-p_e.jpg,4,3,3780,2029,77070,1090,2.29,1,0,1,0,2022,2,2,1182,$600 annually,,4,0.6,6,0.6,5,0.9,0,-35000,71
14,15,2065546275,TX,Houston,"419 Stonework Landing Ln, Houston, TX 77076",,,279900,https://photos.zillowstatic.com/fp/c1e60b9fd5429bb9fa09d9c992afe299-p_e.jpg,3,3,,1680,77076,1090,2.29,1,0,1,0,2022,2,2,1184,$150 monthly,,5,0.4,3,0.8,1,1.5,1,2000,223
14,16,338054633,TX,Houston,"9911 Meadow Thistle Ln, Houston, TX 77044",29.863836,-95.19751,281900,https://photos.zillowstatic.com/fp/3b9c1c08e44de857c99dc8e89ac79b9c-p_e.jpg,3,3,4809.024,1840,77044,1090,2.29,1,0,1,0,2019,2,2,1184,$550 annually,,3,0.7,3,1.8,4,1.1,0,0,0
14,17,2078192653,TX,Houston,"Muenster Plan, Klein Orchard",29.958378,-95.49683,214990,https://photos.zillowstatic.com/fp/ff1976131e4db562ccdb4b8919600f98-p_e.jpg,3,2,,1593,77066,1090,2.29,0,0,0,0,2022,,2,1184,,,4,0.6,4,0.6,2,0.5,1,67000,834
14,18,112151308,TX,Houston,"18439 Ranch View Trl, Houston, TX 77073",29.968224,-95.39384,260000,https://photos.zillowstatic.com/fp/ca4150f3c2c3463bec0d4e0444858361-p_e.jpg,4,4,4726.26,3136,77073,1090,2.29,1,0,1,0,2010,2,2,1184,$410 annually,,999,999.0,999,999.0,999,999.0,1,22000,563
14,19,27852666,TX,Houston,"3319 Palm St, Houston, TX 77004",29.71618,-95.364395,159000,https://photos.zillowstatic.com/fp/3f9a9856311b1f3c2fc58059de5fb789-p_e.jpg,3,2,6899.904,1650,77004,1090,2.29,0,0,1,0,1945,2,0,1184,,,4,0.1,3,1.6,2,0.7,1,123000,6719
14,20,80547136,TX,Houston,"11147 Opatrny Meadows Ln, Houston, TX 77064",29.930717,-95.56425,157600,https://photos.zillowstatic.com/fp/0c59c07195780b46e1915c323fba7696-p_e.jpg,4,3,7940.988,1860,77064,1090,2.29,1,0,1,0,2006,2,2,1184,,,4,0.1,5,0.7,5,3.5,1,124400,5606
14,21,2063177989,TX,Houston,"11313 Stonework Grove Ln, Houston, TX 77076",,,280400,https://photos.zillowstatic.com/fp/8c79cd7576cf79bb1a6162f9ccac3ad9-p_e.jpg,3,3,,1568,77076,1090,2.29,1,0,1,0,2022,2,2,1186,$150 monthly,,5,0.4,3,0.8,1,1.5,1,2000,47
14,22,245766686,TX,Houston,"11630 Downey Violet Ln, Houston, TX 77044",29.889011,-95.21607,299990,https://photos.zillowstatic.com/fp/627849a5c859b1f9b4b13793a5901438-p_e.jpg,4,3,4782.888,2541,77044,1090,2.29,1,0,1,0,2017,2,2,1186,$475 annually,,2,0.4,3,0.3,4,2.6,0,-17540,48
14,23,161368067,TX,Houston,"12622 Colony Hill Ln, Houston, TX 77014",29.975672,-95.45541,282500,https://photos.zillowstatic.com/fp/ac24aa78ff5f8e0299f266797b60e145-p_e.jpg,4,3,6764.868,2153,77014,1090,2.29,1,0,1,0,2015,2,2,1187,$583 annually,,4,0.7,3,1.0,2,2.0,0,0,0
14,24,28397942,TX,Houston,"5331 Windsong Trl, Houston, TX 77084",29.851427,-95.67553,282500,https://photos.zillowstatic.com/fp/10bd75d14a1127da3725e9f028db9845-p_e.jpg,3,3,8873.172,2138,77084,1090,2.29,1,0,1,0,1981,2,2,1187,$450 annually,,5,0.2,6,1.0,5,1.7,0,0,0
14,25,338050922,TX,Houston,"8406 Berry Green Ln, Houston, TX 77022",29.836058,-95.365265,272000,https://photos.zillowstatic.com/fp/15035043b30b714f587aa14eb0c80895-p_e.jpg,3,3,,1620,77022,1090,2.29,1,0,1,0,2021,2,0,1188,$150 monthly,,4,0.5,7,0.4,1,0.8,1,10900,43
14,26,2066401026,TX,Houston,"7308 Hobby Wind Rdg, Houston, TX 77075",29.62188,-95.29824,272990,https://photos.zillowstatic.com/fp/f2ff8f4427781d3384a500b8f98d075f-p_e.jpg,4,3,4240,1619,77075,1090,2.29,1,0,1,0,2022,2,2,1188,$375 annually,,9,1.2,2,2.4,3,1.8,1,9980,307
14,27,2061728688,TX,Houston,"13511 Wembley Heights Dr, Houston, TX 77049",29.8297,-95.18936,274990,https://photos.zillowstatic.com/fp/af91378bbfeb57eb00bb1d0f4294a098-p_e.jpg,3,2,,1402,77049,1090,2.29,1,0,1,0,2022,1,2,1189,$360 annually,,6,0.4,4,1.8,4,1.6,1,8000,80
14,28,2081170089,TX,Houston,"Prism Plan, Imperial Forest",29.83419,-95.18404,287990,https://photos.zillowstatic.com/fp/1442473a4450a9c1dfc43b2a8d377721-p_e.jpg,4,3,,1911,77049,1090,2.29,0,0,1,0,2022,,2,1189,,,6,0.3,4,2.0,4,1.7,0,-5000,231
14,29,89644876,TX,Houston,"19907 Ruby Red Ct, Houston, TX 77073",29.980848,-95.40615,169911,https://photos.zillowstatic.com/fp/333f1df8f54fbf162ec8b4362dcf3258-p_e.jpg,5,4,5680.224,2697,77073,1090,2.29,1,0,1,0,2008,2,2,1189,$400 annually,,999,999.0,999,999.0,999,999.0,1,113088,2765
14,30,2064396418,TX,Houston,"11316 Stonework Ln, Houston, TX 77076",29.746185,-95.46865,283400,https://photos.zillowstatic.com/fp/50833cb72ce6f22f83bc4fedac29e135-p_e.jpg,3,3,2243.34,1680,77076,1090,2.29,1,0,1,0,2022,2,0,1190,$150 monthly,,5,1.4,7,0.2,2,2.2,0,0,217
14,31,2065776819,TX,Houston,"413 Stonework Oaks Ln, Houston, TX 77076",,,279900,https://photos.zillowstatic.com/fp/c1e60b9fd5429bb9fa09d9c992afe299-p_e.jpg,3,3,,1680,77076,1090,2.29,1,0,1,0,2022,2,2,1190,$150 monthly,,5,0.4,3,0.8,1,1.5,1,3500,243
14,32,2061144403,TX,Houston,"22210 Parkway Lakes Ln, Richmond, TX 77407",30.014603,-95.413506,291636,https://photos.zillowstatic.com/fp/29bd5e56d8cd63e203fda37e05d7152a-p_e.jpg,4,3,3224,2312,77407,1090,2.29,1,0,1,0,2022,2,2,1191,$425 annually,,999,999.0,999,999.0,999,999.0,0,-8000,34
14,33,2062413178,TX,Houston,"314 Emerald Thicket Ln, Huffman, TX 77336",,,269990,https://photos.zillowstatic.com/fp/1ecbeb74b3343a2f111e02644c417ba2-p_e.jpg,3,2,,1689,77336,1090,2.29,1,0,1,0,2022,1,0,1193,$400 annually,,4,2.6,4,3.1,6,3.0,1,14000,2
14,34,126255092,TX,Houston,"6527 Dayridge Ln, Houston, TX 77048",29.604088,-95.30753,301000,https://photos.zillowstatic.com/fp/927f5eeb40b688bbcc4a1fc2f9f18e5c-p_e.jpg,3,3,5005.044,2118,77048,1090,2.29,1,0,1,0,2015,2,2,1193,$319 annually,,5,2.0,2,2.7,3,2.2,0,-17000,66
14,35,28130498,TX,Houston,"1235 Kingsbridge Rd, Houston, TX 77073",30.02938,-95.40983,310000,https://photos.zillowstatic.com/fp/63034f4a5795918891859bf906e541b0-p_e.jpg,4,3,0.2668,2379,77073,1090,2.29,1,0,1,0,1968,1,2,1193,$705 annually,,999,999.0,999,999.0,999,999.0,0,-26000,70
14,36,28269580,TX,Houston,"10418 Autumn Harvest Dr, Houston, TX 77064",29.928976,-95.576,169900,https://photos.zillowstatic.com/fp/192ebb44e7d711a984cd4af938d56bf8-p_e.jpg,3,3,0.2893,2078,77064,1090,2.29,1,0,1,0,1978,2,2,1193,,,4,0.7,5,0.5,5,2.9,1,114100,2324
14,37,338063773,TX,Houston,"9328 Scranton St, Houston, TX 77075",29.643475,-95.25016,293000,https://photos.zillowstatic.com/fp/e8ae6300bf5a32811a451c86ce9e1e20-p_e.jpg,3,2,4576,1544,77075,1090,2.29,1,0,1,0,2022,1,2,1193,,,3,1.0,6,1.0,3,2.6,0,-9000,49
14,38,2060320229,TX,Houston,"13218 Lanrin Park Ln, Houston, TX 77044",29.859749,-95.19218,284620,https://photos.zillowstatic.com/fp/c3a15437cb6017cf92a46a26f9cb05f2-p_e.jpg,3,2,5795,1615,77044,1090,2.29,1,0,1,0,2023,1,2,1195,$500 annually,,4,0.8,4,1.4,4,1.2,0,0,0
14,39,2062669739,TX,Houston,"11327 Stonework Grove Ln, Houston, TX 77076",,,284900,https://photos.zillowstatic.com/fp/886995231f5d2e93972aaab4e09e6fc8-p_e.jpg,3,3,,1568,77076,1090,2.29,1,0,1,0,2022,2,2,1197,$150 monthly,,5,0.4,3,0.8,1,1.5,0,0,16
14,40,2062669864,TX,Houston,"11322 Stonework Grove Ln, Houston, TX 77076",,,284900,https://photos.zillowstatic.com/fp/591141edfbef66a0a224f806a58826d0-p_e.jpg,3,3,,1568,77076,1090,2.29,1,0,1,0,2022,2,2,1197,$150 monthly,,5,0.4,3,0.8,1,1.5,0,0,16
