Page,Item,zid,State,City,Address,Lat,Lng,Price,Image,Bedrooms,Bathrooms,lotArea,constructedArea,zipCode,CountyId,taxRate,hasGarage,hasPool,hasCooling,hasView,yearBuilt,stories,parkingSpaces,annualHOI,annualHOA,Zone,schoolElemRating,schoolElemDist,schoolMidRating,schoolMidDist,schoolHighRating,schoolHighDist,priceIncreased,priceDiff,days
5,1,27853531,TX,Houston,"1118 Peddie St, Houston, TX 77009",29.798923,-95.38698,589000,https://photos.zillowstatic.com/fp/b21f254af961e6828c30bf50b88bfb6b-p_e.jpg,2,1,5000.688,1092,77009,1090,2.29,0,0,1,0,1926,1,0,2310,,,8,0.2,6,0.6,5,0.5,0,-39100,47
5,2,28086591,TX,Houston,"5758 Birdwood Rd, Houston, TX 77096",29.682093,-95.49226,639500,https://photos.zillowstatic.com/fp/95f1bd6d41097891442a4d81f2c4012e-p_e.jpg,5,4,9395.892,3417,77096,1090,2.29,1,0,1,0,1970,1,2,2310,$500 annually,,7,0.3,3,0.8,6,1.6,0,-50000,48
5,3,28099822,TX,Houston,"10706 Bordley Dr, Houston, TX 77042",29.751495,-95.56532,669000,https://photos.zillowstatic.com/fp/a83a9ed891df2644e6c04717bbc5fad5-p_e.jpg,4,4,8999.496,3227,77042,1090,2.29,1,0,1,0,1968,2,2,2310,"$1,172 annually",,4,0.3,3,0.3,5,4.6,0,-119100,1306
5,4,70307273,TX,Houston,"17107 Paxston Point Ln, Houston, TX 77095",29.921728,-95.67615,415000,https://photos.zillowstatic.com/fp/9021c1e3a3cfa102eb43138e2f2044fd-p_e.jpg,7,4,7707.0,4433,77095,1090,2.29,1,1,1,1,2005,,0,2310,"$1,140 annually",,7,1.4,8,1.2,5,2.8,1,134900,537
5,5,97645374,TX,Houston,"2509 Riverchase Forest Ct, Kingwood, TX 77345",30.07397,-95.163864,549900,https://photos.zillowstatic.com/fp/4e117a70b1a265fc76e636bf85fd8f8e-p_e.jpg,5,5,8158.788,3624,77345,1090,2.29,1,1,1,0,2009,2,3,2310,$303 annually,,7,0.3,8,1.0,7,2.7,0,0,0
5,6,2060898942,TX,Houston,"1709 Dennis Ave, Houston, TX 77004",,,549990,https://photos.zillowstatic.com/fp/157de563524d4cef1a82ea45c13e89eb-p_e.jpg,3,4,1675.0,2118,77004,1090,2.29,1,0,1,0,2022,3,2,2310,,,999,999.0,999,999.0,999,999.0,0,0,0
5,7,28100279,TX,Houston,"6131 Queensloch Dr, Houston, TX 77096",29.673203,-95.49893,237500,https://photos.zillowstatic.com/fp/6bf4bac8e58d18b8c08c449af5ec55cf-p_e.jpg,4,3,8520.336,2420,77096,1090,2.29,1,0,1,0,1967,1,2,2310,$500 annually,,7,0.2,3,0.3,2,1.8,1,312490,4170
5,8,28203298,TX,Houston,"11806 Cypress Place Dr, Houston, TX 77065",29.946934,-95.58969,549995,https://photos.zillowstatic.com/fp/de58f9d3ba66c83e358864a4bd69b17f-p_e.jpg,4,3,0.969,2787,77065,1090,2.29,1,0,1,0,2001,1,3,2310,,,5,1.6,8,3.9,7,4.0,0,-5,127
5,9,28238232,TX,Houston,"15915 Foxgate Rd, Houston, TX 77079",29.775852,-95.641045,579999,https://photos.zillowstatic.com/fp/b746464f3e687e2508344134539ab262-p_e.jpg,5,4,0.3236,3500,77079,1090,2.29,1,0,1,0,1976,2,4,2310,$810 annually,,5,0.3,7,6.0,7,5.7,0,-30000,17
5,10,97637150,TX,Houston,"8223 Jet Pilot St, Houston, TX 77075",29.633408,-95.272835,575000,https://photos.zillowstatic.com/fp/7ff9946fa71e0cd51d78747dfeeed059-p_e.jpg,4,2,0.5395,2768,77075,1090,2.29,1,0,1,0,2015,1,2,2310,,,9,0.7,2,3.8,3,3.1,0,-25001,183
5,11,125458670,TX,Houston,"4605 Nett St, Houston, TX 77007",29.77181,-95.407555,444900,https://photos.zillowstatic.com/fp/9eb71487c9659ba950ee12b4da1db1b9-p_e.jpg,3,4,1589.94,2380,77007,1090,2.29,1,0,1,0,2019,3,2,2310,,,8,1.1,6,1.8,5,1.7,1,105100,3041
5,12,2062785633,TX,Houston,"911 E 35th St, Houston, TX 77018",29.819944,-95.420586,530000,https://photos.zillowstatic.com/fp/aa46e05aad4f515806f31e6cd1abe204-p_e.jpg,4,4,,2563,77018,1090,2.29,1,0,1,0,2023,3,2,2310,"$1,880 annually",,999,999.0,999,999.0,999,999.0,1,20000,162
5,13,2127408520,TX,Houston,"3570 Noah St, Houston, TX 77021",29.685492,-95.3717,175000,https://photos.zillowstatic.com/fp/17b624955d604fa43e9e230fe7fc0903-p_e.jpg,1,2,0.34435261707989,5160,77021,1090,2.29,1,0,1,0,1952,1,2,2310,,,2,0.3,3,0.6,2,2.5,1,375000,4219
5,14,245766603,TX,Houston,"5009 Inker St, Houston, TX 77007",29.775337,-95.411995,550000,https://photos.zillowstatic.com/fp/47ddb3963ecd3cb7acb20e3683d40024-p_e.jpg,3,3,2500.344,2740,77007,1090,2.29,1,0,1,0,2016,2,2,2310,,,8,0.9,6,1.9,5,2.3,0,0,0
5,15,27740966,TX,Houston,"3409 Polk St, Houston, TX 77003",29.742243,-95.34549,550000,https://photos.zillowstatic.com/fp/163e97265d9f947654d20cee47fc335b-p_e.jpg,7,5,7492.32,900,77003,1090,2.29,0,0,1,0,1930,1,0,2310,,,4,0.7,4,1.4,2,1.1,0,0,0
5,16,27760930,TX,Houston,"1314 Tulane St, Houston, TX 77008",29.794888,-95.40204,599000,https://photos.zillowstatic.com/fp/c16b6ce4b5c351b2a7d3a8c4f93a9a32-p_e.jpg,3,1,6599.34,1488,77008,1090,2.29,1,0,1,0,1930,1,2,2310,,,4,0.4,5,0.7,5,0.6,0,-24000,70
5,17,27788907,TX,Houston,"4000 Driscoll St, Houston, TX 77098",29.736547,-95.40644,2950,https://photos.zillowstatic.com/fp/24d5d25b38cb54b561d6560ba2e596cc-p_e.jpg,3,3,2352.24,2303,77098,1090,2.29,1,0,1,0,1996,2,2,2310,,,5,0.6,9,0.3,5,1.3,1,15000,4334
5,18,27832015,TX,Houston,"2621 Eastman St, Houston, TX 77009",29.811695,-95.38109,575000,https://photos.zillowstatic.com/fp/1f82b3f22ca96409e0dd721b82328fa5-p_e.jpg,3,2,7501.032,1664,77009,1090,2.29,1,0,1,0,1950,1,1,2310,,,6,0.8,5,1.1,5,1.3,0,-25000,217
5,19,27850898,TX,Houston,"2824 Wheeler St, Houston, TX 77004",29.724148,-95.36685,155000,https://photos.zillowstatic.com/fp/3dc6b6058552b9bd087f9ffea24a888c-p_e.jpg,3,3,6298.776,2440,77004,1090,2.29,1,0,1,0,1938,2,2,2310,,,4,0.4,3,2.1,2,0.8,1,395000,5160
5,20,27881141,TX,Houston,"7318 Finch St, Houston, TX 77028",29.828201,-95.29709,550000,https://photos.zillowstatic.com/fp/ea3066d56146cc82ded835314765b388-p_e.jpg,5,3,0.9884,3658,77028,1090,2.29,1,0,1,0,1987,1,2,2310,,,5,0.5,3,2.3,3,1.2,0,0,0
5,21,27920346,TX,Houston,"3531 Charleston St, Houston, TX 77021",29.705914,-95.36438,325000,https://photos.zillowstatic.com/fp/d450915344251752db01514ed11abe62-p_e.jpg,4,4,5510.34,2657,77021,1090,2.29,1,0,1,0,2013,2,2,2310,,,4,0.1,3,0.9,2,1.2,1,225000,3663
5,22,28028381,TX,Houston,"9785 Westview Dr, Houston, TX 77055",29.79113,-95.534966,299000,https://photos.zillowstatic.com/fp/40e7939b3a7504f48e1966c9ee1bc3e8-p_e.jpg,4,2,8738.136,2490,77055,1090,2.29,1,0,1,0,1955,1,2,2310,,,3,0.2,6,1.2,2,1.5,1,251000,2881
5,23,28040478,TX,Houston,"6702 Lindyann Ln, Houston, TX 77008",29.796654,-95.43561,625000,https://photos.zillowstatic.com/fp/f697957f27294971ed47c6690697db8b-p_e.jpg,3,2,9378.468,2060,77008,1090,2.29,1,0,1,0,1960,1,3,2310,,,4,0.5,6,2.0,3,1.3,0,-75000,183
5,24,28041908,TX,Houston,"4434 Sarong Dr, Houston, TX 77096",29.677341,-95.453156,475000,https://photos.zillowstatic.com/fp/8a45f56d52d448d555f49bb16e4187ba-p_e.jpg,5,3,0.2727,3453,77096,1090,2.29,1,0,1,0,1957,1,2,2310,$300 annually,,5,0.7,5,1.4,6,1.3,1,75000,2999
5,25,28511671,TX,Houston,"5910 Leafy Aspen Ct, Kingwood, TX 77345",30.05607,-95.15118,560000,https://photos.zillowstatic.com/fp/4badf3f78c5467fcdf10e9ba075b8d28-p_e.jpg,4,4,0.2862,3751,77345,1090,2.29,1,0,1,0,1992,2,3,2310,$665 annually,,9,0.3,8,0.4,7,2.8,0,-10000,45
5,26,28553741,TX,Houston,"938 Chisel Point Dr, Houston, TX 77094",29.773207,-95.70811,332000,https://photos.zillowstatic.com/fp/44ade5fa48d0989d05780a7cb2ca4d3a-p_e.jpg,4,4,8986.428,3564,77094,1090,2.29,1,0,1,0,1998,2,2,2310,"$1,296 annually",,5,1.2,7,2.0,7,1.5,1,218000,4968
5,27,338057335,TX,Houston,"1017 W 24th St #B, Houston, TX 77008",29.807764,-95.41651,560000,https://photos.zillowstatic.com/fp/328fbc3bc750b0e5cec438b959a92fb2-p_e.jpg,3,4,1694,2383,77008,1090,2.29,1,0,1,0,2022,4,2,2310,,,4,1.2,5,1.2,3,1.2,0,-10000,1
5,28,97652035,TX,Houston,"3610 Chenevert St, Houston, TX 77004",29.734932,-95.372444,375000,https://photos.zillowstatic.com/fp/9019c094386d72cfa067277ea4e44e4f-p_e.jpg,3,4,2400.156,2064,77004,1090,2.29,1,0,1,0,2011,3,2,2310,,,999,999.0,999,999.0,999,999.0,1,175000,2410
5,29,2060415117,TX,Houston,"2242 Highland River Dr, Pearland, TX 77581",29.566614,-95.24394,529880,https://photos.zillowstatic.com/fp/47cfcf4868e6eb6844b6eaa11ff8ed2d-p_e.jpg,4,4,9170,3237,77581,1090,2.29,1,0,1,0,2023,2,2,2322,$825 annually,,7,0.6,6,2.5,5,2.7,1,23000,8
5,30,28113311,TX,Houston,"18706 Upper Bay Rd, Houston, TX 77058",29.538532,-95.08584,324900,https://photos.zillowstatic.com/fp/a9f39621458573dd4bfb1f1f77413a58-p_e.jpg,4,3,9600.624,2748,77058,1090,2.29,1,1,1,1,1969,2,4,2327,$240 annually,,7,2.6,5,1.7,6,1.2,1,229100,4908
5,31,27869897,TX,Houston,"5204 Floyd St, Houston, TX 77007",29.7681,-95.41371,529000,https://photos.zillowstatic.com/fp/76c24be97fed1d5d5932e0b25d712899-p_e.jpg,3,4,2025.54,2325,77007,1090,2.29,1,0,1,0,2007,3,2,2331,,,8,0.7,6,2.2,5,1.9,1,25900,3011
5,32,2078526844,TX,Houston,"The Huntley (5012) Plan, Riverstone Ranch - The Manor - Estate",29.572645,-95.246864,394990,https://photos.zillowstatic.com/fp/38ce1a816411a467d3374a7c1c5dc8c6-p_e.jpg,4,4,,3628,77089,1090,2.29,0,0,0,0,2022,,2,2331,,,6,0.6,6,2.4,5,2.5,1,160000,813
5,33,27936851,TX,Houston,"3710 Brookwoods Dr, Houston, TX 77092",29.81275,-95.44646,495000,https://photos.zillowstatic.com/fp/dc66be5713854c951a62580e1fee76d5-p_e.jpg,4,2,0.5969,3243,77092,1090,2.29,0,0,1,0,1958,1,0,2331,,,2,0.9,6,1.1,3,0.9,1,60000,1655
5,34,28047300,TX,Houston,"8106 Mullins Dr, Houston, TX 77081",29.690674,-95.48748,239000,https://photos.zillowstatic.com/fp/61e022aa017d597b49acc174a2d76ce4-p_e.jpg,4,2,9626.76,2152,77081,1090,2.29,1,0,1,0,1963,1,2,2331,$100 annually,,999,999.0,999,999.0,999,999.0,1,316000,4512
5,35,2063260542,TX,Houston,"5934 Petty St #B, Houston, TX 77007",29.780748,-95.4307,569500,https://photos.zillowstatic.com/fp/6bb3a78ed626d9a21cef508351e759d6-p_e.jpg,3,4,1476.684,2345,77007,1090,2.29,1,0,1,0,2022,4,2,2333,,,8,0.8,6,2.9,3,2.3,0,-14000,158
5,36,2060719813,TX,Houston,"5908 Val Verde St, Houston, TX 77057",29.736734,-95.48231,555998,https://photos.zillowstatic.com/fp/c4880b5227b0c0c3df1a8ec641ff9b5b-p_e.jpg,3,4,,1961,77057,1090,2.29,1,0,1,0,2022,3,2,2335,$80 monthly,,7,0.6,7,1.2,2,1.2,0,0,0
5,37,2060415410,TX,Houston,"2231 Camden Arbor Trl, Houston, TX 77089",29.568228,-95.243645,556060,https://photos.zillowstatic.com/fp/114d68e7252d6e336ca1c6f824d899a1-p_e.jpg,4,4,8987,2986,77089,1090,2.29,1,0,1,1,2023,2,3,2335,$825 annually,,7,0.5,6,2.5,5,2.6,0,0,0
5,38,68426547,TX,Houston,"812 W 23rd St, Houston, TX 77008",29.806532,-95.41304,499000,https://photos.zillowstatic.com/fp/d319e70913e46b888229d0f13f368c38-p_e.jpg,3,3,3275.712,2099,77008,1090,2.29,1,0,1,0,2003,2,3,2346,,,4,1.3,5,1.0,3,1.4,1,59500,1269
5,39,27977064,TX,Houston,"4801 Willowbend Blvd, Houston, TX 77035",29.664,-95.459274,389900,https://photos.zillowstatic.com/fp/02ecf9b404ad5bb41042f84241c12de6-p_e.jpg,4,3,9374.112,2925,77035,1090,2.29,1,0,1,0,1955,1,2,2347,$125 annually,,5,0.3,5,1.0,2,1.6,1,168944,3556
5,40,27912981,TX,Houston,"2302 Althea Dr, Houston, TX 77018",29.824274,-95.4513,297990,https://photos.zillowstatic.com/fp/db0437e2dd019a1ad8936cae3c972916-p_e.jpg,3,2,7831,1408,77018,1090,2.29,0,0,1,0,1953,1,0,2348,,,2,0.4,6,0.8,3,1.2,1,261010,2642
