Page,Item,zid,State,City,Address,Lat,Lng,Price,Image,Bedrooms,Bathrooms,lotArea,constructedArea,zipCode,CountyId,taxRate,hasGarage,hasPool,hasCooling,hasView,yearBuilt,stories,parkingSpaces,annualHOI,annualHOA,Zone,schoolElemRating,schoolElemDist,schoolMidRating,schoolMidDist,schoolHighRating,schoolHighDist,priceIncreased,priceDiff,days
7,1,2061531365,TX,Houston,"1040 W 17th St, Houston, TX 77008",29.800358,-95.41736,575000,https://photos.zillowstatic.com/fp/782c08e49861fd439bff38f5c3b1fcdf-p_e.jpg,3,4,2186.712,2258,77008,1090,2.29,1,0,1,0,2022,3,2,2415,,,4,0.7,5,1.2,3,1.5,0,0,61
7,2,2061636548,TX,Houston,"1728 Wichita St, Houston, TX 77004",29.725887,-95.380226,575000,https://photos.zillowstatic.com/fp/add18457c1a20e64a25d280857df9ac1-p_e.jpg,3,3,,2345,77004,1090,2.29,1,0,1,0,2023,2,2,2415,,,4,0.1,3,2.4,5,3.0,0,0,0
7,3,27873100,TX,Houston,"3002 Randall St, Houston, TX 77018",29.814396,-95.411316,650000,https://photos.zillowstatic.com/fp/2941b069f69310d3503e27a5ed0e0459-p_e.jpg,3,3,0.3772,3000,77018,1090,2.29,1,1,1,0,1953,1,2,2415,,,999,999.0,999,999.0,999,999.0,0,-75000,10971
7,4,27911529,TX,Houston,"1705 Althea Dr, Houston, TX 77018",29.824965,-95.44263,469500,https://photos.zillowstatic.com/fp/4e25615fe1ca58ed089e77185a711989-p_e.jpg,3,2,7261.452,1521,77018,1090,2.29,1,0,1,0,1949,1,1,2415,,,2,0.3,6,0.3,3,0.8,1,105500,3079
7,5,27958589,TX,Houston,"3814 Linkview Dr, Houston, TX 77025",29.688875,-95.4383,690000,https://photos.zillowstatic.com/fp/019da0b834cd3e5a16162e749bd2943f-p_e.jpg,3,3,0.3581,3089,77025,1090,2.29,1,1,1,0,1950,1,2,2415,,,5,0.4,6,0.8,6,1.9,0,-115000,1759
7,6,28066581,TX,Houston,"10206 Balmforth Ln, Houston, TX 77096",29.670258,-95.468506,2695,https://photos.zillowstatic.com/fp/45aae6ac39346bc90db87205a3219eb2-p_e.jpg,3,2,9600.624,2674,77096,1090,2.29,1,0,1,0,1962,1,1,2415,$510 annually,,8,0.3,5,0.3,6,1.4,1,140000,1420
7,7,28126498,TX,Houston,"9823 Emnora Ln, Houston, TX 77080",29.815125,-95.53544,339000,https://photos.zillowstatic.com/fp/4e49c204c6a89519d4ec4d8bf67ba148-p_e.jpg,4,3,8799.12,2716,77080,1090,2.29,1,1,1,0,1968,1,2,2415,$336 annually,,3,0.4,3,0.5,2,0.3,1,236000,1680
7,8,28211622,TX,Houston,"9613 Bayou Brook St, Houston, TX 77063",29.747913,-95.53705,635000,https://photos.zillowstatic.com/fp/21d15e74a9d7fe370c1fd8a4b7a50961-p_e.jpg,3,3,2996.928,4068,77063,1090,2.29,1,0,1,0,1979,2,2,2415,"$2,000 annually",,4,1.4,3,1.5,2,2.6,0,-50000,146
7,9,28342279,TX,Houston,"8993 Briar Forest Dr, Houston, TX 77024",29.748539,-95.52936,575000,https://photos.zillowstatic.com/fp/ce7268c8c1f82e8139c4486798128f54-p_e.jpg,3,3,4334.22,2384,77024,1090,2.29,1,1,1,0,1997,2,2,2415,$475 monthly,,9,1.8,6,2.2,6,2.0,0,0,0
7,10,28541883,TX,Houston,"5318 Pebble Way Ln, Houston, TX 77041",29.846645,-95.59706,397900,https://photos.zillowstatic.com/fp/2c36a8a813cb10981fd0c5d4b36fea94-p_e.jpg,5,4,9099.684,3306,77041,1090,2.29,1,1,1,0,1997,2,2,2415,"$1,600 annually",,5,0.2,5,2.6,5,2.9,1,177100,4908
7,11,305256024,TX,Houston,"2414 Canal St #G, Houston, TX 77003",29.7571,-95.345795,4500,https://photos.zillowstatic.com/fp/14fb64628d63f47b821d64dd65b6c26a-p_e.jpg,3,4,1620.432,2276,77003,1090,2.29,1,0,1,0,2020,3,2,2415,"$2,108 annually",,5,1.8,4,1.9,2,1.8,0,0,0
7,12,337103012,TX,Houston,"2540 Ohsfeldt St, Houston, TX 77008",29.809088,-95.431595,575000,https://photos.zillowstatic.com/fp/7c99535557208c84ca3fe2d979b93926-p_e.jpg,3,4,2648.448,2283,77008,1090,2.29,1,0,1,0,2022,3,2,2415,,,4,1.0,5,2.1,3,0.6,0,0,0
7,13,84039002,TX,Houston,"4305 Feagan St, Houston, TX 77007",29.76601,-95.40354,350000,https://photos.zillowstatic.com/fp/890ffa6d94256e0aa620a0175d3cb31b-p_e.jpg,3,4,1694.484,2310,77007,1090,2.29,1,0,1,0,2003,3,2,2415,"$1,800 annually",,8,1.4,6,1.8,5,1.9,1,225000,3815
7,14,126250963,TX,Houston,"17722 Washburne Ln, Houston, TX 77095",29.90356,-95.68219,598800,https://photos.zillowstatic.com/fp/25c09df2b85514eb2ec58a8ca824e416-p_e.jpg,5,4,7562.016,4059,77095,1090,2.29,1,0,1,0,2014,2,2,2431,$925 annually,,6,0.7,8,1.0,6,1.4,0,0,20
7,15,27743567,TX,Houston,"2206 Lubbock St, Houston, TX 77007",29.765696,-95.38084,578888,https://photos.zillowstatic.com/fp/a6ac7fd40c643fc8ffe76cc188ae8bf8-p_e.jpg,2,2,5000.688,1316,77007,1090,2.29,0,0,1,0,1890,1,2,2431,,,6,0.5,6,1.5,5,2.0,0,0,0
7,16,126294674,TX,Houston,"15406 Easton Gate Ln, Houston, TX 77044",29.942968,-95.17442,4500,https://photos.zillowstatic.com/fp/8e48c8c3a829efcb75477c046639730d-p_e.jpg,6,7,9051.768,4973,77044,1090,2.29,1,0,1,0,2016,2,2,2432,$800 annually,,4,1.3,5,1.8,4,2.4,0,-9000,22
7,17,161436972,TX,Houston,"18006 Calavatra Ln, Houston, TX 77044",29.979212,-95.14526,599000,https://photos.zillowstatic.com/fp/963eec83726bd75c9b6366aea56dd5bb-p_e.jpg,4,4,0.2519,3790,77044,1090,2.29,1,0,1,1,2016,1,3,2432,"$1,300 annually",,4,1.9,5,4.6,4,5.2,0,-20000,77
7,18,28100350,TX,Houston,"6110 Paisley St, Houston, TX 77096",29.674538,-95.49783,550000,https://photos.zillowstatic.com/fp/8cda53cdb20d73a7f714e217d3c00032-p_e.jpg,3,2,8520.336,2644,77096,1090,2.29,1,1,1,0,1970,1,2,2432,$450 annually,,7,0.3,3,0.4,2,1.9,1,29000,1498
7,19,97643927,TX,Houston,"2234 Lakeshore Edge Dr, Houston, TX 77080",29.81383,-95.51353,579000,https://photos.zillowstatic.com/fp/7198cdd1b2b10bd650dfdd03dbcf99b9-p_e.jpg,3,4,2015,2756,77080,1090,2.29,1,0,1,1,2012,3,2,2432,"$3,400 annually",,5,0.5,3,1.4,2,1.1,0,0,0
7,20,28525717,TX,Houston,"7738 Allegro Dr, Houston, TX 77040",29.885674,-95.531105,,https://photos.zillowstatic.com/fp/d4dd0464326479f45d0d6884b5bc3e3b-p_e.jpg,5,4,8306.892,3593,77040,1090,2.29,1,0,1,0,1995,2,2,2434,$800 annually,,5,1.9,7,2.7,4,1.5,0,0,2145
7,21,2061338924,TX,Houston,"5828 Kiam St, Houston, TX 77007",29.781195,-95.42725,579900,https://photos.zillowstatic.com/fp/036f7ec46debf3655ec6eaa88b138041-p_e.jpg,3,3,5000.688,2245,77007,1090,2.29,1,0,1,0,2022,2,1,2436,,,8,0.7,6,2.6,3,2.3,0,0,0
7,22,28548814,TX,Houston,"4231 Noble Oak Trl, Houston, TX 77059",29.610867,-95.120186,579900,https://photos.zillowstatic.com/fp/6860444e30b555e4f92683cbb96ec505-p_e.jpg,5,4,0.2617,3801,77059,1090,2.29,1,1,1,0,1997,2,4,2436,$580 annually,,8,1.0,5,3.5,6,2.0,0,0,0
7,23,97611161,TX,Houston,"7706 Quail Meadow Dr, Houston, TX 77071",29.65443,-95.5129,579900,https://photos.zillowstatic.com/fp/a7c8558792c85914797a76bb8f192462-p_e.jpg,5,4,4900.5,3985,77071,1090,2.29,1,0,1,0,2022,2,0,2436,$525 annually,,4,0.5,5,1.0,2,2.0,0,0,0
7,24,126258836,TX,Houston,"3414 W 12th St, Houston, TX 77008",29.791807,-95.43535,550000,https://photos.zillowstatic.com/fp/fdb9abd3067d11fdfd507f2f5970e03e-p_e.jpg,3,4,3045,2510,77008,1090,2.29,1,0,1,0,2018,3,2,2436,"$2,200 annually",,4,0.4,6,2.3,3,1.6,1,30000,1193
7,25,2071503581,TX,Houston,"3245 Royal Oaks Hollow Ln, Houston, TX 77082",,,512000,https://photos.zillowstatic.com/fp/6ab58f29e8904e123905f9e8b448d150-p_e.jpg,3,3,3195,2060,77082,1090,2.29,1,0,1,0,2023,2,2,2436,"$2,100 annually",,7,0.5,6,2.8,3,1.2,1,68000,594
7,26,27987919,TX,Houston,"7713 Airline Dr, Houston, TX 77037",29.873255,-95.38555,950000,https://photos.zillowstatic.com/fp/274ae4709587cd405c96a7f6b0306f5a-p_e.jpg,2,1,0.3762,1216,77037,1090,2.29,0,0,1,0,1949,1,0,2436,,,8,0.3,3,0.3,1,2.2,0,-370000,279
7,27,28160238,TX,Houston,"10827 Tupper Lake Dr, Houston, TX 77042",29.755306,-95.569595,499000,https://photos.zillowstatic.com/fp/33d4ce81068a97383d9c6be4ad315cb6-p_e.jpg,4,3,0.2649,2738,77042,1090,2.29,1,1,1,0,1972,1,2,2436,$811 annually,,4,0.6,3,0.7,5,4.3,1,81000,1213
7,28,84064503,TX,Houston,"2534 Splintwood Ct, Kingwood, TX 77345",30.07213,-95.16506,289702,https://photos.zillowstatic.com/fp/888688e7fe526ce9e9d7d8493e808feb-p_e.jpg,5,4,8398.368,4528,77345,1090,2.29,1,0,1,0,2007,2,3,2436,$725 annually,,7,0.2,8,0.9,7,2.5,1,290298,1923
7,29,97648501,TX,Houston,"2009 Wavell St, Houston, TX 77088",29.883617,-95.44185,580000,https://photos.zillowstatic.com/fp/e6cba18265764ff85b5e962a2d2d7765-p_e.jpg,3,3,7440.048,2200,77088,1090,2.29,1,0,1,0,2022,2,2,2436,,,2,1.2,2,1.1,4,0.8,0,0,0
7,30,337096716,TX,Houston,"3512 Harvest Dance Dr, Houston, TX 77008",29.789879,-95.439316,595000,https://photos.zillowstatic.com/fp/abfabfcd457c94cf0a226443b9c2885f-p_e.jpg,3,3,2400,2448,77008,1090,2.29,1,0,1,0,2022,2,2,2448,"$1,750 annually",,4,0.7,6,2.4,3,1.8,0,-12180,70
7,31,28100275,TX,Houston,"9603 Braewick Dr, Houston, TX 77096",29.674942,-95.49689,444500,https://photos.zillowstatic.com/fp/948a68ce97f8d50b74d2abf361f303f2-p_e.jpg,4,3,8999.496,3347,77096,1090,2.29,1,0,1,0,1965,2,2,2457,$450 annually,,7,0.4,3,0.4,2,1.9,1,140400,187
7,32,112160547,TX,Houston,"2506 Riverchase Forest Ct, Kingwood, TX 77345",30.07425,-95.16338,610000,https://photos.zillowstatic.com/fp/d06a2ce9c5ba6759b9fa6729d7ee3c1d-p_e.jpg,4,4,8158.788,3926,77345,1090,2.29,1,1,1,0,2010,2,2,2457,$500 annually,,7,0.3,8,1.0,7,2.7,0,-25000,16
7,33,2060330265,TX,Houston,"905 W 35th St #A, Houston, TX 77018",,,585000,https://photos.zillowstatic.com/fp/7cca256a8e0dbc75179c96c134e53375-p_e.jpg,4,4,,2706,77018,1090,2.29,1,0,1,0,2023,3,2,2457,"$1,880 annually",,999,999.0,999,999.0,999,999.0,0,0,0
7,34,2062590049,TX,Houston,"5208 S Capitol St, Houston, TX 77023",,,585000,https://photos.zillowstatic.com/fp/64c85b137aacb333f4baba5b92e04799-p_e.jpg,3,4,2701,2301,77023,1090,2.29,1,0,1,0,2022,2,2,2457,"$2,340 annually",,4,0.6,4,0.3,2,0.7,0,0,0
7,35,27944301,TX,Houston,"2122 Nantucket Dr #B, Houston, TX 77057",29.74505,-95.487495,585000,https://photos.zillowstatic.com/fp/92ff9bc92470fb3ea1f64f8759c23fd6-p_e.jpg,3,3,2787.84,2850,77057,1090,2.29,1,0,1,0,1995,2,2,2457,$400 annually,,5,0.3,7,1.2,2,1.2,0,0,0
7,36,28099369,TX,Houston,"1918 Shadowdale Dr, Houston, TX 77043",29.806805,-95.55352,389000,https://photos.zillowstatic.com/fp/a2c1228146a3aa994938e736cf347f21-p_e.jpg,4,2,8934.156,2231,77043,1090,2.29,1,0,1,0,1968,1,2,2457,,,2,0.4,3,0.3,2,0.5,1,196000,183
7,37,84031080,TX,Houston,"5035 Heatherglen Dr, Houston, TX 77096",29.676182,-95.46679,585000,https://photos.zillowstatic.com/fp/f8b3b95c78f80496b2561d48abf3e7ca-p_e.jpg,4,4,0.2904,3552,77096,1090,2.29,1,1,1,0,1959,1,1,2457,$500 annually,,8,0.1,5,0.6,6,1.0,0,0,0
7,38,2068542523,TX,Houston,"4006 Brinkman St, Houston, TX 77018",29.823357,-95.41592,519900,https://photos.zillowstatic.com/fp/e3428646fe295cdab2647089581d51b5-p_e.jpg,3,4,,2275,77018,1090,2.29,1,0,1,0,2022,3,2,2473,,,999,999.0,999,999.0,999,999.0,1,55100,232
7,39,2068542586,TX,Houston,"4008 Brinkman St, Houston, TX 77018",29.82336,-95.41592,519900,https://photos.zillowstatic.com/fp/e3428646fe295cdab2647089581d51b5-p_e.jpg,3,4,,2275,77018,1090,2.29,1,0,1,0,2022,3,2,2473,,,999,999.0,999,999.0,999,999.0,1,69000,232
7,40,2067569659,TX,Houston,"803-803 Fisher Dr #C, Houston, TX 77018",29.822906,-95.4152,569900,https://photos.zillowstatic.com/fp/874bbc6c5f5c7266b4726de2b98811b4-p_e.jpg,3,3,2364,2483,77018,1090,2.29,1,0,1,0,2021,2,2,2474,,,999,999.0,999,999.0,999,999.0,1,19100,360
