Page,Item,zid,State,City,Address,Lat,Lng,Price,Image,Bedrooms,Bathrooms,lotArea,constructedArea,zipCode,CountyId,taxRate,hasGarage,hasPool,hasCooling,hasView,yearBuilt,stories,parkingSpaces,annualHOI,annualHOA,Zone,schoolElemRating,schoolElemDist,schoolMidRating,schoolMidDist,schoolHighRating,schoolHighDist,priceIncreased,priceDiff,days
9,1,28172529,TX,Houston,"5430 Theall Rd, Houston, TX 77066",29.974327,-95.50546,486000,https://photos.zillowstatic.com/fp/160f8b5c97d73a6da765ba68b7ab2a7e-p_e.jpg,5,5,9753.084,4872,77066,1090,2.29,1,0,1,0,1978,2,2,2020,$515 annually,,4,0.3,4,0.6,2,0.6,0,-5000,8699
9,2,2060752125,TX,Houston,"2817 Oakheath Crest Ct, Houston, TX 77089",29.567831,-95.25351,481110,https://photos.zillowstatic.com/fp/9e6cb36be7e6971ef10883aa686674fc-p_e.jpg,5,4,0.27086776859504,2991,77089,1090,2.29,1,0,1,0,2023,2,2,2025,$825 annually,,7,0.7,6,2.9,5,2.9,1,1100,41
9,3,28205502,TX,Houston,"5431 Olympia Fields Ln, Houston, TX 77069",29.984295,-95.516075,510000,https://photos.zillowstatic.com/fp/e23ba5ead86ec7efec697f320e2c0842-p_e.jpg,5,4,0.2755,4113,77069,1090,2.29,1,1,1,0,1974,2,2,2031,$158 annually,,5,0.4,6,4.3,5,3.3,0,-26450,5071
9,4,2061359345,TX,Houston,"21738 Enchanted Rock Dr, Porter, TX 77365",,,535000,https://photos.zillowstatic.com/fp/3b3f7a5cd27a2cff91f4f427387b9fc1-p_e.jpg,4,3,7544,2449,77365,1090,2.29,1,0,1,0,2022,1,3,2036,"$1,420 annually",,7,1.7,8,2.5,7,3,0,-50220,8
9,5,27758668,TX,Houston,"2120 Francis St, Houston, TX 77004",29.734463,-95.368484,504700,https://photos.zillowstatic.com/fp/9815c70d84f024f0f44c58aaaecd6e5c-p_e.jpg,3,4,1398.276,2104,77004,1090,2.29,1,0,1,0,2022,3,2,2037,,,4,0.5,3,2.7,2,1.1,0,-19800,186
9,6,27783090,TX,Houston,"217 E 30th St, Houston, TX 77018",29.814077,-95.396515,250000,https://photos.zillowstatic.com/fp/9f1db8c44a3919a62f9062fdb5c89c04-p_e.jpg,3,3,3001.284,2122,77018,1090,2.29,1,0,1,0,2021,2,2,2037,,,4,0.4,5,0.6,3,0.5,1,234900,1253
9,7,28016899,TX,Houston,"2206 De Milo Dr, Houston, TX 77018",29.83479,-95.45163,454990,https://photos.zillowstatic.com/fp/2ccf1b468e287776ce820833f4f081b1-p_e.jpg,3,2,8999.496,1558,77018,1090,2.29,1,0,1,0,1955,1,2,2037,,,2,0.6,6,0.8,3,1.6,1,29910,1084
9,8,28062708,TX,Houston,"10627 Burgoyne Rd, Houston, TX 77042",29.741356,-95.56488,525000,https://photos.zillowstatic.com/fp/e0027d6b4779e9f50c20442bc1ebeb20-p_e.jpg,4,2,9683.388,2231,77042,1090,2.29,1,0,1,0,1964,1,1,2037,$220 quarterly,,4,0.4,3,0.5,5,4.7,0,-40100,219
9,9,337099909,TX,Houston,"2124 Francis St, Houston, TX 77004",29.734184,-95.36815,499700,https://photos.zillowstatic.com/fp/13085184c59193b3bfcb97b0557f9576-p_e.jpg,3,4,1398.276,2104,77004,1090,2.29,1,0,1,0,2022,3,2,2037,,,4,0.5,3,2.7,2,1.1,0,-14800,146
9,10,89645630,TX,Houston,"625 W 8th St, Houston, TX 77007",29.785255,-95.40404,398900,https://photos.zillowstatic.com/fp/18d4f2f6d241f2d7b5b935d77c8e5c7f-p_e.jpg,3,4,1694.484,2084,77007,1090,2.29,1,0,1,0,2007,3,2,2037,,,4,0.6,6,1.2,5,0.9,1,86000,3497
9,11,2062773970,TX,Houston,"1943 Pueblo Nuevo Path, Houston, TX 77077",29.743319,-95.61754,539990,https://photos.zillowstatic.com/fp/62f23fa29e0da45d937cdb4439271aa0-p_e.jpg,3,3,2330,2180,77077,1090,2.29,1,0,1,0,2022,3,2,2037,"$2,160 annually",,6,0.7,7,1.4,5,1.5,0,-55000,182
9,12,124873951,TX,Houston,"2205 Colorado St, Houston, TX 77007",29.776903,-95.37516,439000,https://photos.zillowstatic.com/fp/0970ec5b6982c4b2cecd7e60ce94dbe2-p_e.jpg,3,4,1622,2222,77007,1090,2.29,1,0,1,0,2015,3,2,2037,"$1,400 annually",,6,0.3,6,1.1,5,1.6,1,46000,826
9,13,2061207341,TX,Houston,"9416 Sea Star Ln, Porter, TX 77365",30.08555,-95.183266,500000,https://photos.zillowstatic.com/fp/c6397e62d7674c1b6b9df935a4161068-p_e.jpg,5,5,,3126,77365,1090,2.29,1,0,1,0,2022,2,2,2037,"$1,200 annually",,7,1.6,8,2.3,7,2.6,0,-15000,82
9,14,28012279,TX,Houston,"10311 Chatterton Dr, Houston, TX 77043",29.799517,-95.552155,359900,https://photos.zillowstatic.com/fp/138fffd4442e46e00ba0d4acb838b8b9-p_e.jpg,4,2,9073.548,2296,77043,1090,2.29,1,0,1,0,1960,1,2,2037,,,4,0.5,3,0.8,2,0.8,1,125100,276
9,15,338048450,TX,Houston,"3115 Craftsman Pl, Houston, TX 77080",29.827686,-95.53794,485000,https://photos.zillowstatic.com/fp/dfd9ecb5611bb810cfe401645a98d226-p_e.jpg,4,4,2509.056,2539,77080,1090,2.29,1,0,1,0,2022,2,2,2037,$997 annually,,4,0.9,5,0.2,2,0.8,0,0,0
9,16,80531268,TX,Houston,"10047 Rhiney Ct, Houston, TX 77089",29.57167,-95.21848,349900,https://photos.zillowstatic.com/fp/3433c0b44ae02a310e99093510b34b22-p_e.jpg,5,4,9147.6,4205,77089,1090,2.29,1,0,1,0,2006,2,2,2037,$605 annually,,7,0.3,8,3.8,6,2.5,1,135100,2758
9,17,80544748,TX,Houston,"4213 Lillian St, Houston, TX 77007",29.769348,-95.403404,434900,https://photos.zillowstatic.com/fp/4676418cbd1495592d329c0ea3abe51e-p_e.jpg,3,4,2182.356,2394,77007,1090,2.29,1,0,1,0,2006,4,2,2037,,,8,1.4,6,1.7,5,1.7,1,50100,2289
9,18,2061470943,TX,Houston,"2812 Oakheath Crest Ct, Houston, TX 77089",29.567787,-95.25339,496270,https://photos.zillowstatic.com/fp/fad252329d0e7b6d9e402b315d257c60-p_e.jpg,4,4,,2986,77089,1090,2.29,1,0,1,0,2023,2,2,2039,$825 annually,,7,0.7,6,2.9,5,2.9,0,-10900,76
9,19,28075538,TX,Houston,"9614 S Rice Ave, Houston, TX 77096",29.676128,-95.46811,525000,https://photos.zillowstatic.com/fp/2de415331c1f733a3d2c656f5e414851-p_e.jpg,4,3,10769,2694,77096,1090,2.29,1,1,1,0,1964,1,3,2050,$515 annually,,8,0.1,5,0.6,6,1,0,-37000,188
9,20,2063073365,TX,Houston,"2801 Summer Indigo Trl, Houston, TX 77089",,,548990,https://photos.zillowstatic.com/fp/513de726db88eda41f38ecafdfd48452-p_e.jpg,4,4,9866.34,3006,77089,1090,2.29,1,0,1,0,2022,2,3,2054,$825 annually,,7,0.8,6,3,5,3,0,-44000,116
9,21,123233590,TX,Houston,"2444 Charleston St UNIT C, Houston, TX 77021",29.709484,-95.379135,449900,https://photos.zillowstatic.com/fp/e60af25a06195ca82f528ae265fe794d-p_e.jpg,3,4,1594.296,2436,77021,1090,2.29,1,0,1,0,2014,3,2,2054,,,5,2.1,3,1.5,5,3.6,1,39100,2773
9,22,2060498421,TX,Houston,"4103 Edison St, Houston, TX 77009",29.797424,-95.36289,489000,https://photos.zillowstatic.com/fp/638bca09284af4617dcdca880ca0c963-p_e.jpg,3,3,2749.9999,2207,77009,1090,2.29,1,0,1,0,2022,2,2,2054,,,5,0.3,5,1,2,0.9,0,0,0
9,23,243978547,TX,Houston,"1629 Johanna Dr, Houston, TX 77055",29.800144,-95.48302,489000,https://photos.zillowstatic.com/fp/be991adf2bd63b686f004b5ef9881d30-p_e.jpg,3,3,3463.02,2590,77055,1090,2.29,1,0,1,0,2016,2,2,2054,$600 annually,,999,999,999,999,999,999,0,0,1640
9,24,251269424,TX,Houston,"1704 Eado Point Ln, Houston, TX 77003",29.742863,-95.354774,489000,https://photos.zillowstatic.com/fp/5a1b0ed508e898a75a285e056b6bff51-p_e.jpg,3,4,,2119,77003,1090,2.29,1,1,1,1,2017,3,2,2054,"$1,195 annually",,4,1.2,4,1.9,2,2.8,0,-15000,61
9,25,27764670,TX,Houston,"3605 Bremond St, Houston, TX 77004",29.732819,-95.34679,110000,https://photos.zillowstatic.com/fp/0e4745f073430a829d2e9044c5a8993e-p_e.jpg,3,4,5000.688,2130,77004,1090,2.29,1,0,1,0,2023,4,2,2054,,,4,1,3,2.8,2,0.8,1,379000,722
9,26,27852728,TX,Houston,"3415 Southmore Blvd, Houston, TX 77004",29.714691,-95.36227,115000,https://photos.zillowstatic.com/fp/3eb5d15b136118f389767112f42e0d8e-p_e.jpg,4,4,9199.872,2754,77004,1090,2.29,1,0,1,0,1930,2,2,2054,,,4,0.3,3,1.5,2,0.7,1,374000,2128
9,27,27986269,TX,Houston,"8434 Bluegate St, Houston, TX 77025",29.689281,-95.42253,399999,https://photos.zillowstatic.com/fp/1614e62c2fa4be198b21025d526c533e-p_e.jpg,3,2,,1742,77025,1090,2.29,1,0,1,0,1952,1,2,2054,,,5,0.6,6,1.3,6,2.9,1,89001,2576
9,28,27994182,TX,Houston,"5007 Darnell St, Houston, TX 77096",29.687502,-95.46564,498000,https://photos.zillowstatic.com/fp/ab88f393107036ab772da591b2b0796a-p_e.jpg,4,3,0.2935,2500,77096,1090,2.29,1,0,1,0,1960,1,2,2054,$486 annually,,7,0.4,5,1.3,6,0.3,0,-9000,2492
9,29,28023546,TX,Houston,"5215 Grape St, Houston, TX 77096",29.685562,-95.47427,499000,https://photos.zillowstatic.com/fp/69ad02359478af0f5adac2661392de25-p_e.jpg,3,2,8001.972,2062,77096,1090,2.29,1,0,1,0,1955,1,2,2054,$460 annually,,7,0.4,5,1,6,0.5,0,-10000,2802
9,30,28272424,TX,Houston,"11819 Oakcroft Dr, Houston, TX 77070",29.98652,-95.599815,334990,https://photos.zillowstatic.com/fp/a6471debecdf979c8a98e5f06b965cf4-p_e.jpg,4,3,10402.128,3230,77070,1090,2.29,1,1,1,0,1979,2,2,2054,$655 annually,,6,0.6,9,1.2,5,2.5,1,154010,5856
9,31,338062956,TX,Houston,"6436 Cebra Rd, Houston, TX 77091",29.85717,-95.442825,489000,https://photos.zillowstatic.com/fp/c771d7cc91627d33598df2957403a051-p_e.jpg,3,3,5364,2662,77091,1090,2.29,1,0,1,0,2022,2,2,2054,,,2,1,2,2,4,0.9,0,0,0
9,32,338062957,TX,Houston,"6432 Cebra Rd, Houston, TX 77091",29.857153,-95.442825,489000,https://photos.zillowstatic.com/fp/441603bb11eeb19c96075a6b6df72f32-p_e.jpg,3,3,5364,2662,77091,1090,2.29,1,0,1,0,2022,2,2,2054,,,2,1,2,2,4,0.9,0,0,0
9,33,338062959,TX,Houston,"6424 Cebra Rd, Houston, TX 77091",29.857119,-95.44282,489000,https://photos.zillowstatic.com/fp/e11b5108727120564226000ff128ab47-p_e.jpg,3,3,5364,2662,77091,1090,2.29,1,0,1,0,2022,2,2,2054,,,2,1,2,2,4,0.9,0,0,0
9,34,97637778,TX,Houston,"5622 Woodbrook Way, Houston, TX 77081",29.72088,-95.46542,3000,https://photos.zillowstatic.com/fp/10c90a1e8b8af81eab9ac9d6774ce041-p_e.jpg,3,4,1873.08,2509,77081,1090,2.29,1,0,1,0,2016,3,2,2054,"$1,500 annually",,999,999,999,999,999,999,0,-6000,43
9,35,97642449,TX,Houston,"2809 Wichita St, Houston, TX 77004",29.719822,-95.37086,175000,https://photos.zillowstatic.com/fp/d98dfbd2b94c399bd69906ea83509775-p_e.jpg,4,5,,2348,77004,1090,2.29,1,0,1,0,2021,3,2,2054,,,4,0.4,3,1.8,2,1,1,314000,2685
9,36,2069560914,TX,Houston,"543 T C Jester Blvd, Houston, TX 77007",29.78179,-95.41861,3070,https://photos.zillowstatic.com/fp/570360ebf0de924d60430b3856165a27-p_e.jpg,4,4,1929.708,2346,77007,1090,2.29,1,0,1,0,2004,3,2,2055,,,8,0.9,6,2.1,3,2.4,1,486180,282
9,37,27956105,TX,Houston,"202 Ogilvie St, Houston, TX 77017",29.69759,-95.24034,27500,https://photos.zillowstatic.com/fp/549bd6ca6e786527171d1f7795d48d98-p_e.jpg,5,5,7357.284,3300,77017,1090,2.29,0,0,1,0,2016,2,0,2058,,,3,0.2,6,1.7,2,1.1,1,462400,4767
9,38,305339949,TX,Houston,"3834 Brinkman St, Houston, TX 77018",29.822584,-95.41567,489900,https://photos.zillowstatic.com/fp/b4cf408aea1631ca361ef33813ee5de4-p_e.jpg,3,4,1790.316,2439,77018,1090,2.29,1,0,1,0,2018,3,2,2058,,,999,999,999,999,999,999,0,0,0
9,39,337100239,TX,Houston,"3404 Hutchins St, Houston, TX 77004",29.734158,-95.36775,509700,https://photos.zillowstatic.com/fp/13085184c59193b3bfcb97b0557f9576-p_e.jpg,3,4,1398.276,2111,77004,1090,2.29,1,0,1,0,2022,3,2,2058,,,4,0.5,3,2.7,2,1.1,0,-19800,54
9,40,28284527,TX,Houston,"11507 Briar Rose Dr, Houston, TX 77077",29.746313,-95.57967,325000,https://photos.zillowstatic.com/fp/9a026fc6e1368d239e92c527c39ddc0e-p_e.jpg,4,3,8376.588,2676,77077,1090,2.29,1,1,1,0,1978,2,1,2058,$735 annually,,4,0.4,3,1.2,5,3.7,1,164926,4457
